%time,field.header.seq,field.header.stamp,field.header.frame_id,field.pose.position.x,field.pose.position.y,field.pose.position.z,field.pose.orientation.x,field.pose.orientation.y,field.pose.orientation.z,field.pose.orientation.w
1649337281951954665,0,1649337281951741942,1,-1.44537978927e-25,-5.1023558937e-10,0.0,0.0,0.0,0.707106781187,0.707106781187
1649337282874707574,1,1649337282874539137,1,-4.58487067784e-25,-1.5859587559e-09,0.0,0.0,0.0,0.707106781187,0.707106781187
1649337283929094011,2,1649337283928455501,1,-1.01263996288e-24,-2.20194373185e-09,0.0,0.0,0.0,0.707106781187,0.707106781187
1649337284928418368,3,1649337284927915162,1,-1.22642843296e-24,-2.40035718383e-09,0.0,0.0,0.0,0.707106781187,0.707106781187
1649337285890500448,4,1649337285890298228,1,-1.59195467034e-24,-2.63072006997e-09,0.0,0.0,0.0,0.707106781187,0.707106781187
1649337286914390845,5,1649337286913957516,1,-1.74465741952e-24,-2.71393676186e-09,0.0,0.0,0.0,0.707106781187,0.707106781187
1649337287901025288,6,1649337287900860104,1,-1.91733596678e-24,-2.80602943158e-09,0.0,0.0,0.0,0.707106781187,0.707106781187
1649337288889683518,7,1649337288889406965,1,-4.97866189815e-06,0.157154429016,0.0,0.0,0.0,0.707117981691,0.707095580505
1649337289932685435,8,1649337289932122029,1,-1.43833151717e-05,0.321276744531,0.0,0.0,0.0,0.707127040463,0.707086521329
1649337290952858920,9,1649337290952239609,1,-3.75414653609e-05,0.631069963236,0.0,0.0,0.0,0.707133210072,0.707080351313
1649337291905642624,10,1649337291905349414,1,-8.98085587669e-05,0.924897318876,0.0,0.0,0.0,0.70716966977,0.70704388701
1649337292935950898,11,1649337292935471581,1,-0.0189421007814,1.3153572407,0.0,0.0,0.0,0.723956522558,0.689845601165
1649337293951414106,12,1649337293950810884,1,-0.0601864402867,1.69614171626,0.0,0.0,0.0,0.744205717285,0.667950484962
1649337294963872210,13,1649337294963738074,1,-0.143763055681,2.03375520991,0.0,0.0,0.0,0.78749531138,0.616320642649
1649337295941249061,14,1649337295941135902,1,-0.267453708919,2.3537668053,0.0,0.0,0.0,0.824780455731,0.565453092524
1649337296954658297,15,1649337296954358008,1,-0.434248622851,2.68559143384,0.0,0.0,0.0,0.851209076281,0.52482674137
1649337297997177754,16,1649337297997089132,1,-0.642224210015,3.01198302427,0.0,0.0,0.0,0.876748353055,0.480949400056
1649337298964437835,17,1649337298964318747,1,-0.908859748873,3.42428579708,0.0,0.0,0.0,0.878361520735,0.477996902597
1649337299972602131,18,1649337299972516500,1,-1.18896690783,3.8523111802,0.0,0.0,0.0,0.879654484501,0.475613275569
1649337300947888771,19,1649337300947384640,1,-1.45327290932,4.25622231525,0.0,0.0,0.0,0.879646083288,0.475628813422
1649337302437189200,20,1649337302436950454,1,-1.86211765512,4.88102332055,0.0,0.0,0.0,0.87964495493,0.475630900244
1649337303002182632,21,1649337303001960799,1,-2.01412663558,5.11332581332,0.0,0.0,0.0,0.87964462246,0.475631515122
1649337304013601540,22,1649337304013117756,1,-2.2911585544,5.53669208975,0.0,0.0,0.0,0.87964416409,0.475632362841
1649337304994477598,23,1649337304994042979,1,-2.56153432875,5.94989820224,0.0,0.0,0.0,0.879641025379,0.475638167592
1649337305995301015,24,1649337305994911164,1,-2.83688230075,6.37061478871,0.0,0.0,0.0,0.879663909005,0.475595844383
1649337306989088598,25,1649337306988725916,1,-3.10323980147,6.74440274551,0.0,0.0,0.0,0.888910377188,0.458081151466
1649337308005689926,26,1649337308005529190,1,-3.39883147803,7.12185255761,0.0,0.0,0.0,0.899044490524,0.437857287319
1649337309003323056,27,1649337309003092315,1,-3.70958702378,7.44698359122,0.0,0.0,0.0,0.919495698196,0.393100064867
1649337310038995654,28,1649337310038452557,1,-4.06757625335,7.75478815591,0.0,0.0,0.0,0.937617854579,0.347667598107
1649337311014895652,29,1649337311014755553,1,-4.44047769193,8.07362186095,0.0,0.0,0.0,0.93809855479,0.346368447613
1649337312041961915,30,1649337312040430659,1,-4.83371930058,8.40831561743,0.0,0.0,0.0,0.938488206734,0.345311288291
1649337313038009423,31,1649337313037445467,1,-5.15992840536,8.71989218144,0.0,0.0,0.0,0.928207800878,0.372062196936
1649337314051102314,32,1649337314050773200,1,-5.4681436833,9.05623022117,0.0,0.0,0.0,0.915317417434,0.402733193742
1649337315021721642,33,1649337315021577345,1,-5.76845583515,9.41234578054,0.0,0.0,0.0,0.90682684214,0.421503355116
1649337316030435954,34,1649337316030160841,1,-6.06680744714,9.7973620303,0.0,0.0,0.0,0.897921353134,0.440155930991
1649337317269748101,35,1649337317268976057,1,-6.40612146242,10.2481070909,0.0,0.0,0.0,0.89482482772,0.446417436595
1649337318023143377,36,1649337318022946335,1,-6.59560461963,10.5032971081,0.0,0.0,0.0,0.893350008689,0.449361504777
1649337319055569496,37,1649337319055498157,1,-6.6556559611,10.5670654845,0.0,0.0,0.0,0.918033436342,0.396502975725
1649337320019357819,38,1649337320019138018,1,-6.70850603242,10.6104769477,0.0,0.0,0.0,0.941470687362,0.337094860295
1649337321051358145,39,1649337321050828834,1,-6.76291609586,10.6419662082,0.0,0.0,0.0,0.965790928097,0.259321968227
1649337322014669833,40,1649337322014505543,1,-6.81765356227,10.663129653,0.0,0.0,0.0,0.983034302459,0.18342180947
1649337323046611759,41,1649337323045983242,1,-6.91318903345,10.6864826112,0.0,0.0,0.0,0.992824096893,0.119583914592
1649337324020702546,42,1649337324020296881,1,-7.00559603305,10.6977051874,0.0,0.0,0.0,0.998174802379,0.0603909256091
1649337325448384882,43,1649337325448302993,1,-7.13545673104,10.698278355,0.0,0.0,0.0,0.999997564927,0.00220683954362
1649337326046751252,44,1649337326046623782,1,-7.18981274318,10.6958624135,0.0,0.0,0.0,-0.999753397004,0.0222068723392
1649337327260745078,45,1649337327260602235,1,-7.2498849817,10.6890844254,0.0,0.0,0.0,-0.998422446809,0.0561481763559
1649337328021143554,46,1649337328021052659,1,-7.28885280973,10.6825327342,0.0,0.0,0.0,-0.996533688923,0.0831901847614
1649337329034856848,47,1649337329034688941,1,-7.44095395514,10.6329942775,0.0,0.0,0.0,-0.987633499766,0.156780324464
1649337330234267024,48,1649337330233775447,1,-7.57344537217,10.5783544608,0.0,0.0,0.0,-0.980935856889,0.194331790167
1649337332726551444,49,1649337332725988058,1,-8.34016980821,10.3861521274,0.0,0.0,0.0,-0.992468424638,0.122500718761
1649337333034029579,50,1649337333033558270,1,-8.43535666736,10.3640903189,0.0,0.0,0.0,-0.993523115045,0.113630189081
1649337333354719415,51,1649337333354144697,1,-8.53686203129,10.3425708763,0.0,0.0,0.0,-0.994549544018,0.104265068421
1649337334000882736,52,1649337334000783918,1,-8.72924331773,10.3134858317,0.0,0.0,0.0,-0.997187017289,0.0749536693639
1649337335042425772,53,1649337335042278137,1,-8.97406968863,10.3251738877,0.0,0.0,0.0,0.999715554953,0.02384972087
1649337336034644555,54,1649337336034119295,1,-9.21223647286,10.3778902395,0.0,0.0,0.0,0.994074614306,0.108699867493
1649337337047028044,55,1649337337046204209,1,-9.50697702871,10.4439218684,0.0,0.0,0.0,0.993934457547,0.10997406104
1649337338076209369,56,1649337338075576288,1,-9.79823433542,10.5100623713,0.0,0.0,0.0,0.993773656007,0.111417775178
1649337339067655819,57,1649337339067006957,1,-9.96552823828,10.5675467255,0.0,0.0,0.0,0.986338287107,0.164732460028
1649337340010619579,58,1649337340010520742,1,-10.113506059,10.6370933982,0.0,0.0,0.0,0.975968886979,0.21790991636
1649337341057379651,59,1649337341057010525,1,-10.3923890728,10.835785119,0.0,0.0,0.0,0.952480421462,0.30459981407
1649337342219516864,60,1649337342219417420,1,-10.6699366257,11.1269505499,0.0,0.0,0.0,0.919232635407,0.393714823193
1649337343072810012,61,1649337343072638546,1,-10.960984566,11.4300611179,0.0,0.0,0.0,0.919947919986,0.392040590389
1649337344084310300,62,1649337344084204948,1,-11.3104382487,11.7854383739,0.0,0.0,0.0,0.922263335624,0.38656220685
1649337345273591944,63,1649337345273482111,1,-11.7147507097,12.04391739,0.0,0.0,0.0,0.959827360807,0.280591228385
1649337346291216139,64,1649337346291128672,1,-12.0831459225,12.1808121521,0.0,0.0,0.0,0.984218867515,0.176955420452
1649337347122167160,65,1649337347121615620,1,-12.4042750334,12.2408734719,0.0,0.0,0.0,0.995729749177,0.0923161232076
1649337348202617575,66,1649337348202116111,1,-12.8218406081,12.2270946107,0.0,0.0,0.0,-0.999863992664,0.0164923065196
1649337349041439203,67,1649337349041040139,1,-13.1558925305,12.1692548891,0.0,0.0,0.0,-0.996328028836,0.0856180994666
1649337350103632849,68,1649337350103062404,1,-13.5608898142,12.0251542471,0.0,0.0,0.0,-0.985428855062,0.170088128953
1649337351049666887,69,1649337351049530666,1,-13.9133481028,11.8416833974,0.0,0.0,0.0,-0.971344012298,0.237677953905
1649337352200223066,70,1649337352199217520,1,-14.2975847323,11.5511212528,0.0,0.0,0.0,-0.948055277923,0.318105627116
1649337353386116170,71,1649337353385983387,1,-14.5691602711,11.1963809917,0.0,0.0,0.0,-0.896626674948,0.442787314375
1649337354297245739,72,1649337354296338266,1,-14.7105325446,10.8921865481,0.0,0.0,0.0,-0.843045821392,0.537841745343
1649337355125582372,73,1649337355125450247,1,-14.7814452006,10.5955475146,0.0,0.0,0.0,-0.785016754527,0.619474531447
1649337356044616540,74,1649337356044472315,1,-14.7850951125,10.2558293427,0.0,0.0,0.0,-0.710894971402,0.703298186856
1649337357240907110,75,1649337357240820256,1,-14.6654133746,9.82028608237,0.0,0.0,0.0,-0.606231902038,0.795287923303
1649337358136675254,76,1649337358136172669,1,-14.5096128041,9.5191103675,0.0,0.0,0.0,-0.519870408537,0.854245139482
1649337359036409689,77,1649337359035836368,1,-14.3036633487,9.28639204246,0.0,0.0,0.0,-0.410655485385,0.911790585783
1649337360073398457,78,1649337360072878459,1,-14.0076370832,9.10099320804,0.0,0.0,0.0,-0.276128706591,0.961120667448
1649337361371072546,79,1649337361370960067,1,-13.5963851092,9.04923146461,0.0,0.0,0.0,-0.0625618329628,0.998041089864
1649337362076420772,80,1649337362076287542,1,-13.3713785264,9.0740659664,0.0,0.0,0.0,0.0549360273081,0.998489876215
1649337363114768652,81,1649337363114563978,1,-13.0903762349,9.21890319402,0.0,0.0,0.0,0.235718602962,0.971821352008
1649337364094163005,82,1649337364093966652,1,-12.8911743461,9.43256831892,0.0,0.0,0.0,0.398799652395,0.917038078408
1649337365061417530,83,1649337365060770681,1,-12.7548983058,9.73287653154,0.0,0.0,0.0,0.541649954483,0.84060414394
1649337366063773258,84,1649337366063370974,1,-12.7161881154,10.0903733984,0.0,0.0,0.0,0.667962595789,0.744194847219
1649337367074036039,85,1649337367073502499,1,-12.6135665506,10.4531106341,0.0,0.0,0.0,0.603231121047,0.797566432719
1649337368372288344,86,1649337368371600019,1,-12.3438961586,10.7805350075,0.0,0.0,0.0,0.426764052842,0.90436300411
1649337369225572440,87,1649337369225468138,1,-12.1142135572,10.9406517066,0.0,0.0,0.0,0.299716772102,0.95402822627
1649337370081433294,88,1649337370081279635,1,-11.8488202605,11.0327202631,0.0,0.0,0.0,0.166186697276,0.986094306671
1649337371106325470,89,1649337371105831148,1,-11.5214584391,11.0304507928,0.0,0.0,0.0,-0.00346624010375,0.999993992572
1649337372080575739,90,1649337372080421861,1,-11.2270421608,10.9289779169,0.0,0.0,0.0,-0.165193173151,0.986261230884
1649337373757701228,91,1649337373757534174,1,-10.4433238045,10.5909111389,0.0,0.0,0.0,-0.20221951007,0.979340221653
1649337374165293327,92,1649337374164598720,1,-10.2564993901,10.5071764259,0.0,0.0,0.0,-0.209122997568,0.977889345421
1649337375116534676,93,1649337375116445017,1,-9.87019236842,10.3592153566,0.0,0.0,0.0,-0.181871258452,0.983322350681
1649337376033052042,94,1649337376032961469,1,-9.51524034425,10.2527414682,0.0,0.0,0.0,-0.145198160424,0.989402594604
1649337377366111032,95,1649337377365972919,1,-9.025282249,10.2906348441,0.0,0.0,0.0,0.0385836118088,0.999255375217
1649337378086445383,96,1649337378086238035,1,-8.7698024316,10.3631945684,0.0,0.0,0.0,0.137922219582,0.990443063152
1649337379300323403,97,1649337379299789506,1,-8.32210993332,10.4950357722,0.0,0.0,0.0,0.142708417342,0.989764773883
1649337380107817247,98,1649337380107190543,1,-8.04414171336,10.5784025609,0.0,0.0,0.0,0.145174484482,0.989406068839
1649337381093826796,99,1649337381093413977,1,-7.77769836905,10.6583610673,0.0,0.0,0.0,0.145256584747,0.989394018876
1649337382070728309,100,1649337382070609057,1,-7.52487418202,10.7342961366,0.0,0.0,0.0,0.145370764264,0.98937724903
1649337383038905729,101,1649337383038768045,1,-7.33636800045,10.7765396332,0.0,0.0,0.0,0.110003882966,0.993931157441
1649337384085870688,102,1649337384085092474,1,-7.14007382415,10.799134687,0.0,0.0,0.0,0.0572705143397,0.998358697156
1649337385074758144,103,1649337385074248398,1,-7.1213698629,10.7965579718,0.0,0.0,0.0,-0.0683972317581,0.997658167254
1649337386049198175,104,1649337386049070376,1,-7.10149180371,10.7885646412,0.0,0.0,0.0,-0.190003357683,0.981783440515
1649337387088354281,105,1649337387087752283,1,-7.04185138187,10.7446496973,0.0,0.0,0.0,-0.312047037317,0.950066653715
1649337388048161079,106,1649337388047639390,1,-6.99941029972,10.6948029907,0.0,0.0,0.0,-0.419355937129,0.907821897728
1649337389700482508,107,1649337389700345153,1,-6.82970109688,10.3515149223,0.0,0.0,0.0,-0.52765185509,0.849460722942
1649337390052813169,108,1649337390052710477,1,-6.79683605894,10.2752292471,0.0,0.0,0.0,-0.549700098816,0.835362078001
1649337391035595155,109,1649337391035437916,1,-6.60551237524,9.87537629595,0.0,0.0,0.0,-0.533094685104,0.846055587248
1649337392243091447,110,1649337392242904930,1,-6.29650276149,9.44425772308,0.0,0.0,0.0,-0.456853157174,0.889542125354
1649337393087368581,111,1649337393087113464,1,-6.03966969932,9.158429718,0.0,0.0,0.0,-0.407202680479,0.913337821953
1649337394090713398,112,1649337394090573766,1,-5.68999097197,8.84948484861,0.0,0.0,0.0,-0.353972254703,0.935255923745
1649337395463998004,113,1649337395463876784,1,-5.2828426715,8.38365870957,0.0,0.0,0.0,-0.413465265758,0.910519892156
1649337396735560850,114,1649337396735077289,1,-4.86204859082,7.90189422619,0.0,0.0,0.0,-0.413617926672,0.910450553701
1649337397082588214,115,1649337397081974748,1,-4.74727169304,7.77046265471,0.0,0.0,0.0,-0.413659503995,0.910431663967
1649337398079348413,116,1649337398079244268,1,-4.4169939005,7.39210457783,0.0,0.0,0.0,-0.413752153834,0.910389562329
1649337399427576313,117,1649337399427462982,1,-4.05253333671,6.91030152849,0.0,0.0,0.0,-0.445371878197,0.895345681908
1649337400090817521,118,1649337400090692457,1,-3.88248487885,6.66866315672,0.0,0.0,0.0,-0.460701401529,0.887555191878
1649337401062553287,119,1649337401062334441,1,-3.63338434585,6.31940011314,0.0,0.0,0.0,-0.457896163704,0.889005682358
1649337402078470371,120,1649337402078373918,1,-3.36058999244,5.95918721003,0.0,0.0,0.0,-0.445126268522,0.895467813532
1649337403295314313,121,1649337403295179776,1,-2.99632875545,5.51718631288,0.0,0.0,0.0,-0.426627339345,0.904427505842
1649337404501441630,122,1649337404500768379,1,-2.61204109848,5.05141674115,0.0,0.0,0.0,-0.42637406745,0.904546933335
1649337405106645742,123,1649337405106517720,1,-2.41882585802,4.81736748045,0.0,0.0,0.0,-0.426246873656,0.904606877432
1649337406068201125,124,1649337406068080817,1,-2.11037398362,4.44398994264,0.0,0.0,0.0,-0.426090846866,0.904680380144
1649337407314966828,125,1649337407314134180,1,-1.71371212531,3.96339871067,0.0,0.0,0.0,-0.426292637849,0.904585312127
1649337408079411233,126,1649337408078899966,1,-1.4694200509,3.66725139179,0.0,0.0,0.0,-0.426416880779,0.904526751283
1649337409266838638,127,1649337409266719806,1,-1.10097471767,3.25349989035,0.0,0.0,0.0,-0.409246063347,0.912424056914
1649337410550132752,128,1649337410549615653,1,-0.782244412411,3.12978811242,0.0,0.0,0.0,-0.184064515062,0.982914164256
1649337411350664700,129,1649337411350530060,1,-0.563382134023,3.11473488893,0.0,0.0,0.0,-0.0343288957809,0.999410589755
1649337412331966452,130,1649337412331350602,1,-0.103337708597,3.1589316625,0.0,0.0,0.0,0.0478700617374,0.998853571445
1649337413098215225,131,1649337413098003987,1,0.253465586536,3.24037494849,0.0,0.0,0.0,0.111971441006,0.993711425112
1649337414157848945,132,1649337414157721346,1,0.738653188148,3.42738730154,0.0,0.0,0.0,0.182911859819,0.983129315776
1649337415024435337,133,1649337415023843122,1,1.13059289118,3.59142581853,0.0,0.0,0.0,0.1968939809,0.980424785634
1649337416302571670,134,1649337416302420317,1,1.55392460275,3.64442533614,0.0,0.0,0.0,0.0622338383948,0.998061595974
1649337417078015614,135,1649337417077906860,1,1.81173539405,3.62984102699,0.0,0.0,0.0,-0.028251034806,0.99960085986
1649337418085001599,136,1649337418084550999,1,2.11105002369,3.53453965983,0.0,0.0,0.0,-0.153515355244,0.988146262303
1649337419102314299,137,1649337419101818983,1,2.37717824918,3.33342409188,0.0,0.0,0.0,-0.317955709325,0.948105567385
1649337420299020920,138,1649337420298919836,1,2.57851298867,3.008766404,0.0,0.0,0.0,-0.486298013456,0.873793020176
1649337421110803611,139,1649337421110622116,1,2.65604023937,2.76418593269,0.0,0.0,0.0,-0.590692970925,0.80689640853
1649337422060090456,140,1649337422059438792,1,2.66041354025,2.4693851786,0.0,0.0,0.0,-0.701842882622,0.712331782326
1649337423372476888,141,1649337423371831503,1,2.5116447512,2.2730560733,0.0,0.0,0.0,-0.895529724752,0.445001698969
1649337424073686512,142,1649337424073316103,1,2.39615052676,2.20009136628,0.0,0.0,0.0,-0.960577830959,0.278011206017
1649337425115885892,143,1649337425115463744,1,1.9749221414,2.03787793558,0.0,0.0,0.0,-0.983156956765,0.182763230338
1649337427132783973,144,1649337427132522546,1,1.21394556521,1.81371108966,0.0,0.0,0.0,-0.991507065918,0.130052828628
1649337428083829805,145,1649337428083737992,1,0.86652036442,1.75502048602,0.0,0.0,0.0,-0.996501280543,0.0835774962252
1649337429145739818,146,1649337429145596199,1,0.509791200626,1.81747296926,0.0,0.0,0.0,0.996247659937,0.0865482528461
1649337431094538799,147,1649337431093927381,1,-0.035535022037,2.19117461187,0.0,0.0,0.0,0.934601404073,0.355696802774
1649337433067191460,148,1649337433065319343,1,-1.69083922934,4.64666143722,0.0,0.0,0.0,0.87568282647,0.482886723182
1649337434083916052,149,1649337434083525802,1,-2.3405902692,5.72122383392,0.0,0.0,0.0,0.853030857851,0.521860475179
1649337435468090436,150,1649337435468011833,1,-2.73435770825,6.29810827919,0.0,0.0,0.0,0.884479656819,0.466578757203
1649337436155636599,151,1649337436155559415,1,-2.928383833,6.54861439417,0.0,0.0,0.0,0.899231166633,0.437473780879
1649337437103657858,152,1649337437103130865,1,-3.22230749164,6.91357720637,0.0,0.0,0.0,0.902364883426,0.430972872881
1649337438192908149,153,1649337438192678009,1,-4.16648247609,7.82587230685,0.0,0.0,0.0,0.92149774033,0.388383720781
1649337441119138816,154,1649337441118253878,1,-5.71486552343,9.34309400139,0.0,0.0,0.0,0.909526021501,0.415646985087
1649337443136594179,155,1649337443136510105,1,-6.35566288995,10.066447636,0.0,0.0,0.0,0.916317317496,0.400452960604
1649337444315704390,156,1649337444315499616,1,-6.74555367041,10.4871899185,0.0,0.0,0.0,0.916212900531,0.400691802887
1649337445291426866,157,1649337445290921960,1,-7.07183031419,10.8396267145,0.0,0.0,0.0,0.916183169157,0.400759779111
1649337446116456255,158,1649337446114932433,1,-7.34682028653,11.1368323208,0.0,0.0,0.0,0.916168477976,0.400793363172
1649337447093929375,159,1649337447093331231,1,-7.65481725127,11.4188344157,0.0,0.0,0.0,0.931813524274,0.362937399533
1649337448531722541,160,1649337448531631310,1,-8.19535727597,11.8997518037,0.0,0.0,0.0,0.934521133121,0.355907644972
1649337449092102352,161,1649337449091430151,1,-8.40587566346,12.0846066539,0.0,0.0,0.0,0.935555921899,0.3531785908
1649337450325877983,162,1649337450325774550,1,-8.8625038182,12.489428614,0.0,0.0,0.0,0.934877739756,0.354969874369
1649337451104176933,163,1649337451104024766,1,-9.1377034296,12.7364684031,0.0,0.0,0.0,0.933759890303,0.357900079997
1649337452106831739,164,1649337452106284326,1,-9.48923267069,13.0624685577,0.0,0.0,0.0,0.93087583685,0.365335703659
1649337453077117913,165,1649337453077041871,1,-9.83424280913,13.3877528038,0.0,0.0,0.0,0.92937620168,0.369133953669
1649337454125970112,166,1649337454124429052,1,-10.1963755781,13.724284,0.0,0.0,0.0,0.930707146194,0.365765236215
1649337455084194931,167,1649337455083594755,1,-9.84511429421,12.2044884537,0.0,0.0,0.0,0.965985772419,0.258595219375
1649337456100799442,168,1649337456100642424,1,-10.0467951006,11.5945143072,0.0,0.0,0.0,0.995232240793,0.0975335167366
1649337457168891972,169,1649337457168790686,1,-10.2298021807,11.4688127316,0.0,0.0,0.0,-0.9998573822,0.0168883172747
1649337458291376666,170,1649337458290803983,1,-10.3597047129,11.4101131516,0.0,0.0,0.0,-0.994909502146,0.100772429461
1649337459412948832,171,1649337459412804863,1,-10.4863283749,11.3469137307,0.0,0.0,0.0,-0.981930154259,0.189243684588
1649337460110084887,172,1649337460109943795,1,-10.5684224913,11.2969645215,0.0,0.0,0.0,-0.969445249432,0.245307782904
1649337461133671660,173,1649337461131375273,1,-10.6539141247,11.220578684,0.0,0.0,0.0,-0.937454233885,0.348108545386
1649337462107478389,174,1649337462106929066,1,-10.8658719182,11.3185100756,0.0,0.0,0.0,-0.999799643278,0.0200168254729
1649337464125627748,175,1649337464125554344,1,-11.0517272094,11.8147807966,0.0,0.0,0.0,0.844073521204,0.536227461814
1649337465116703911,176,1649337465116208544,1,-11.6180160333,12.0967172944,0.0,0.0,0.0,0.954557384807,0.298027178476
1649337466105801802,177,1649337466105060379,1,-11.9729671147,12.1329876091,0.0,0.0,0.0,0.994791977668,0.101926057348
1649337467082023072,178,1649337467081902525,1,-12.3964489343,12.2631070417,0.0,0.0,0.0,0.985155828091,0.171662443123
1649337468095962799,179,1649337468095476021,1,-12.7880416527,12.4240967619,0.0,0.0,0.0,0.978471950188,0.206379850506
1649337469141053178,180,1649337469140314720,1,-13.0769868424,12.662819765,0.0,0.0,0.0,0.937460929417,0.348090513827
1649337470131908557,181,1649337470131266229,1,-13.2817151197,12.9610316287,0.0,0.0,0.0,0.881661474795,0.47188244708
1649337471086918543,182,1649337471086834641,1,-13.4941715151,13.318226153,0.0,0.0,0.0,0.867209599636,0.497943280203
1649337472080959814,183,1649337472080794793,1,-13.7089295024,13.7027916363,0.0,0.0,0.0,0.860958484637,0.508675228148
1649337473103584534,184,1649337473102408652,1,-13.9655575539,13.9993797952,0.0,0.0,0.0,0.908393317035,0.418116708068
1649337474134449479,185,1649337474134351498,1,-14.2778841664,14.2339156424,0.0,0.0,0.0,0.947947871138,0.318425554258
1649337475114761274,186,1649337475114571037,1,-14.6872104572,14.4973983832,0.0,0.0,0.0,0.959033802554,0.283291661648
1649337476084465184,187,1649337476084091960,1,-15.1080051647,14.734195956,0.0,0.0,0.0,0.967079588279,0.254474104642
1649337477094165416,188,1649337477093554681,1,-15.5094664055,14.8947266075,0.0,0.0,0.0,0.981798296392,0.189926578448
1649337478358096242,189,1649337478358016508,1,-16.0408381547,15.0231578539,0.0,0.0,0.0,0.992914383512,0.118831927591
1649337480430130440,190,1649337480429635368,1,-16.7248721807,14.7741904226,0.0,0.0,0.0,-0.984842189543,0.173452765027
1649337481062934096,191,1649337481058881249,1,-16.9246607919,14.6596453092,0.0,0.0,0.0,-0.96643211796,0.256922092035
1649337481407359562,192,1649337481406996673,1,-17.0299568046,14.5850247152,0.0,0.0,0.0,-0.953028366683,0.302881053053
1649337482297176017,193,1649337482297006990,1,-17.2398584473,14.355848186,0.0,0.0,0.0,-0.915302640234,0.402766777155
1649337484957824223,194,1649337484957694390,1,-17.3690523878,13.5071094186,0.0,0.0,0.0,-0.698739827214,0.715375882921
1649337485337525348,195,1649337485337411035,1,-17.3516453362,13.3827776031,0.0,0.0,0.0,-0.656061810537,0.754707162252
1649337486108376189,196,1649337486108270540,1,-17.2589147123,13.1477458388,0.0,0.0,0.0,-0.562460932291,0.826823862528
1649337487141682157,197,1649337487141519157,1,-17.0580027077,12.9443073366,0.0,0.0,0.0,-0.385446895667,0.92273002044
1649337488131268330,198,1649337488131157365,1,-16.8096470279,12.8402771752,0.0,0.0,0.0,-0.196922360999,0.980419085768
1649337489142989221,199,1649337489142874387,1,-16.4222053401,12.8117008962,0.0,0.0,0.0,-0.0367427290305,0.999324757956
1649337490119708339,200,1649337490119607335,1,-16.0505674824,12.8904764541,0.0,0.0,0.0,0.104288727407,0.994547063409
1649337491562394451,201,1649337491562194506,1,-15.4124109852,13.0169959565,0.0,0.0,0.0,0.0977204966329,0.995213898887
1649337492117419296,202,1649337492117195098,1,-15.1671988517,13.0643184719,0.0,0.0,0.0,0.0952047836875,0.995457708375
1649337493126189159,203,1649337493126105401,1,-14.7465976305,13.0758345945,0.0,0.0,0.0,0.0136997348201,0.999906154229
1649337494119223487,204,1649337494118629953,1,-14.3376577789,13.0209124498,0.0,0.0,0.0,-0.0666926292583,0.997773568102
1649337495126148871,205,1649337495125505072,1,-10.6869232161,11.8297564233,0.0,0.0,0.0,0.0246067793783,0.999697207363
1649337496129460586,206,1649337496129340460,1,-7.7311810094,10.9136540827,0.0,0.0,0.0,0.0949242472489,0.995484498766
1649337497089095756,207,1649337497088945236,1,-7.50884678843,10.9190271586,0.0,0.0,0.0,0.0430765401955,0.999071775042
1649337498080552465,208,1649337498080234051,1,-7.28959982578,10.8621174993,0.0,0.0,0.0,-0.176535479023,0.984294277463
1649337499118127670,209,1649337499117930305,1,-6.99758711636,10.8422374053,0.0,0.0,0.0,-0.0526351633601,0.998613809026
1649337500123569920,210,1649337500123443430,1,-6.71050422142,10.9089832548,0.0,0.0,0.0,0.0894664957595,0.995989832346
1649337501732649242,211,1649337501732072804,1,-6.08751970444,11.1281347951,0.0,0.0,0.0,0.159789114551,0.987151173261
1649337502134938678,212,1649337502134486935,1,-5.93976539873,11.1919508757,0.0,0.0,0.0,0.177335590892,0.984150439823
1649337503147800290,213,1649337503146996794,1,-5.67631364649,11.2967461967,0.0,0.0,0.0,0.178292321478,0.983977564837
1649337504343701356,214,1649337504343545013,1,-6.15324809602,10.8374652285,0.0,0.0,0.0,-0.2482471761,0.968696722178
1649337505112364458,215,1649337505112240378,1,-6.47855205362,10.4231551116,0.0,0.0,0.0,-0.695215948974,0.718800935094
1649337507135848006,216,1649337507135740372,1,-6.56412019182,10.0258825447,0.0,0.0,0.0,-0.807756690168,0.589516012919
1649337508336053867,217,1649337508335421959,1,-6.72127798165,9.75531042193,0.0,0.0,0.0,-0.854519727028,0.519418940855
1649337509147958849,218,1649337509147847725,1,-6.84110324149,9.58882749273,0.0,0.0,0.0,-0.882852698089,0.469649990394
1649337510118142726,219,1649337510118010350,1,-7.0088229447,9.40263935288,0.0,0.0,0.0,-0.91132372021,0.411690511165
1649337511685338854,220,1649337511684673705,1,-7.47420720246,8.77416341879,0.0,0.0,0.0,-0.892444693895,0.451156811251
1649337512226866005,221,1649337512226672672,1,-5.74921485713,7.63701932146,0.0,0.0,0.0,-0.704176930027,0.710024542687
1649337513145032733,222,1649337513144954831,1,-4.73375621347,7.04178805467,0.0,0.0,0.0,-0.375819745266,0.9266927857
1649337514097130018,223,1649337514096618442,1,-4.14648404282,6.60260509665,0.0,0.0,0.0,-0.496444018495,0.868068739502
1649337515141174699,224,1649337515140782519,1,-3.73879753843,6.17713993325,0.0,0.0,0.0,-0.488115297406,0.872779156739
1649337516138466459,225,1649337516138284427,1,-3.50277500518,5.78424532988,0.0,0.0,0.0,-0.475045551629,0.879961205894
1649337517082336652,226,1649337517082201809,1,-3.1035824675,5.30139259928,0.0,0.0,0.0,-0.463887896675,0.885893909742
1649337518093591953,227,1649337518093459645,1,-2.74676032546,4.86216782918,0.0,0.0,0.0,-0.445684021181,0.895190344711
1649337519083673296,228,1649337519083585866,1,-2.49917892547,4.49204365815,0.0,0.0,0.0,-0.469341511348,0.88301673015
1649337520345600431,229,1649337520344974626,1,-2.15846597173,3.95945720341,0.0,0.0,0.0,-0.477177618409,0.87880687326
1649337521128379518,230,1649337521127967673,1,-1.9522137305,3.62854530336,0.0,0.0,0.0,-0.48077348828,0.876844828329
1649337522290361459,231,1649337522289671407,1,-1.64109764633,3.15377837637,0.0,0.0,0.0,-0.472891156872,0.881120850821
1649337523419018969,232,1649337523418441303,1,-1.32944443893,2.6986130318,0.0,0.0,0.0,-0.464374578888,0.885638893953
1649337524135169367,233,1649337524134599172,1,-1.12868362082,2.41227667508,0.0,0.0,0.0,-0.458940592252,0.888466956495
1649337525098965570,234,1649337525098433616,1,-0.860691200413,2.08363911635,0.0,0.0,0.0,-0.427421278276,0.904052570859
1649337526105108865,235,1649337526104948994,1,-0.558134687341,1.77158225265,0.0,0.0,0.0,-0.388695557455,0.921366248359
1649337527079385496,236,1649337527079060339,1,-0.195543985839,2.64477179743,0.0,0.0,0.0,-0.089002407724,0.99603141086
1649337528707791728,237,1649337528707208717,1,0.239772104941,3.4747548606,0.0,0.0,0.0,0.365999324527,0.930615116171
1649337529405959403,238,1649337529403934389,1,0.413579416817,3.74133857016,0.0,0.0,0.0,0.382400683128,0.923996600396
1649337530169253143,239,1649337530168781131,1,0.585875021875,4.00587043046,0.0,0.0,0.0,0.452838432273,0.891592594326
1649337531120102110,240,1649337531119886240,1,0.786299229204,4.380412465,0.0,0.0,0.0,0.50700377886,0.861943831245
1649337532129173813,241,1649337532128239436,1,0.950285399405,4.79247927182,0.0,0.0,0.0,0.558315300184,0.829628848089
1649337533159922281,242,1649337533159453135,1,1.1474994355,5.02971811877,0.0,0.0,0.0,0.420912164769,0.907101399817
1649337535152636054,243,1649337535152527517,1,1.79270950221,5.43570124115,0.0,0.0,0.0,0.275475152324,0.961308192232
1649337536129842880,244,1649337536129735166,1,2.17969533357,5.6732319256,0.0,0.0,0.0,0.270538836055,0.962709062067
1649337537086980938,245,1649337537086601670,1,1.82393867152,4.81484040762,0.0,0.0,0.0,-0.562965576382,0.826480344478
1649337538090281691,246,1649337538090188483,1,1.32544575827,4.60788841532,0.0,0.0,0.0,0.986364515757,0.164575338538
1649337539105071236,247,1649337539104584645,1,1.04702867499,4.6661310353,0.0,0.0,0.0,0.986885016498,0.16142479429
1649337540186534575,248,1649337540186307727,1,0.847611057611,4.82607699072,0.0,0.0,0.0,0.934689284171,0.355465809967
1649337542181844980,249,1649337542181254899,1,0.641748416902,5.41368252378,0.0,0.0,0.0,0.759539510831,0.650461168315
1649337543365627411,250,1649337543365452490,1,0.708045407295,5.76966528504,0.0,0.0,0.0,0.635129940994,0.772405306852
1649337544133093392,251,1649337544132550704,1,0.805032250478,5.98642408411,0.0,0.0,0.0,0.540482922831,0.84135498461
1649337545112635658,252,1649337545112276126,1,1.00039475497,6.18796246605,0.0,0.0,0.0,0.388307371406,0.921529915582
1649337546148705777,253,1649337546148611974,1,1.27341034468,6.31297475753,0.0,0.0,0.0,0.212556504567,0.977148776987
1649337547104065716,254,1649337547103893439,1,1.68281159701,6.4510447325,0.0,0.0,0.0,0.161813960137,0.986821281846
1649337548110327311,255,1649337548110241779,1,2.13407750908,6.55463768288,0.0,0.0,0.0,0.112609982175,0.993639266492
1649337549167216604,256,1649337549167086802,1,2.65174427064,6.67249121886,0.0,0.0,0.0,0.111730148904,0.993738584249
1649337550161473186,257,1649337550161351805,1,-0.232532185794,6.91737265406,0.0,0.0,0.0,0.606697058088,0.794933129079
1649337551184393739,258,1649337551184296683,1,-2.00114129802,7.08216116119,0.0,0.0,0.0,0.985979880129,0.166864244166
1649337552124180196,259,1649337552123804504,1,-3.58451868707,7.71932962906,0.0,0.0,0.0,0.933235501528,0.359265220537
1649337554183435553,260,1649337554182890032,1,-5.50272202654,9.48394584542,0.0,0.0,0.0,0.880885912691,0.473328647793
1649337555124787753,261,1649337555124192627,1,-5.68761674973,9.8473291148,0.0,0.0,0.0,0.89005126765,0.455860440216
1649337556175490073,262,1649337556174928047,1,-5.94501465294,10.2615985612,0.0,0.0,0.0,0.891345470117,0.453324666108
1649337557126012628,263,1649337557125206389,1,-6.19839785109,10.6435898456,0.0,0.0,0.0,0.892046055201,0.451944504779
1649337560106850149,264,1649337560106467061,1,-7.10864080691,11.5750867322,0.0,0.0,0.0,0.950798694445,0.309809365001
1649337561414029003,265,1649337561413358830,1,-7.59209965089,11.8648017925,0.0,0.0,0.0,0.965431473721,0.260656995972
1649337562177547258,266,1649337562177038021,1,-7.58163844975,11.4329888571,0.0,0.0,0.0,0.992189465767,0.124739985658
1649337563105366500,267,1649337563105184008,1,-7.93075169157,11.1867853102,0.0,0.0,0.0,-0.999667283788,0.0257938311022
1649337564288267098,268,1649337564287917374,1,-7.65523028767,11.2109202638,0.0,0.0,0.0,0.987934539577,0.154872029466
1649337565142967454,269,1649337565142877853,1,-7.65787629137,11.4686793506,0.0,0.0,0.0,0.946525591844,0.322628740171
1649337566124461326,270,1649337566124289767,1,-7.94868600818,11.7599562089,0.0,0.0,0.0,0.945142894599,0.326657173179
1649337567104041440,271,1649337567103253794,1,-8.86503531772,11.7215469303,0.0,0.0,0.0,0.9668924525,0.255184218356
1649337568416535247,272,1649337568416446345,1,-9.54258700575,11.5918546634,0.0,0.0,0.0,-0.999978352722,0.00657982430787
1649337569119263980,273,1649337569118645004,1,-9.82039336608,11.5295549194,0.0,0.0,0.0,-0.997410104403,0.0719241519517
1649337570132206172,274,1649337570132054268,1,-10.1491565274,11.3849711975,0.0,0.0,0.0,-0.979763324514,0.200159506236
1649337571415896663,275,1649337571415251706,1,-10.2741203736,11.2619079226,0.0,0.0,0.0,-0.925099408479,0.379725011595
1649337572094891410,276,1649337572094796627,1,-10.2870116916,11.3969553117,0.0,0.0,0.0,-0.976275521523,0.216531997809
1649337573197743169,277,1649337573197589269,1,-10.6869503531,11.7713446359,0.0,0.0,0.0,0.985733819115,0.168311728208
1649337574205723185,278,1649337574204676894,1,-10.9781952341,11.8445726675,0.0,0.0,0.0,0.991653884248,0.128928561054
1649337575144713830,279,1649337575144620079,1,-11.0173106051,11.8511299159,0.0,0.0,0.0,0.995251516034,0.0973366315043
1649337576116905677,280,1649337576116448394,1,-11.0768264473,11.8582178918,0.0,0.0,0.0,0.997598080345,0.0692681029855
1649337577144088769,281,1649337577143980718,1,-11.2614719163,11.8626949605,0.0,0.0,0.0,0.999879769949,0.0155063099046
1649337578207347428,282,1649337578207109213,1,-11.5763716513,12.0700008426,0.0,0.0,0.0,0.993941623684,0.109909274896
1649337579147065543,283,1649337579146570821,1,-11.9158479807,12.3540901957,0.0,0.0,0.0,0.912411700508,0.409273611141
1649337580127057486,284,1649337580126837573,1,-12.2493103532,12.4921453819,0.0,0.0,0.0,0.94389092583,0.330257354401
1649337581107664188,285,1649337581107454496,1,-12.6576710533,12.4862879254,0.0,0.0,0.0,0.993110508642,0.117181558378
1649337582135690768,286,1649337582135568045,1,-13.0907964874,12.7980837861,0.0,0.0,0.0,0.933806134697,0.357779405223
1649337583142696995,287,1649337583142573779,1,-13.2003256837,13.2055017574,0.0,0.0,0.0,0.805868098998,0.59209509964
1649337584137336946,288,1649337584137243111,1,-13.2297179701,13.5867208923,0.0,0.0,0.0,0.743285498411,0.668974340204
1649337585128683571,289,1649337585128204002,1,-13.2767880917,14.0848282194,0.0,0.0,0.0,0.743891135667,0.668300814211
1649337586360002493,290,1649337586359889136,1,-13.4523861442,14.49997026,0.0,0.0,0.0,0.836631938038,0.54776546099
1649337587108302699,291,1649337587107883053,1,-13.6023371379,14.7269272224,0.0,0.0,0.0,0.883690122181,0.468072396066
1649337588141364213,292,1649337588140704874,1,-13.8847584376,14.9760481727,0.0,0.0,0.0,0.936411168502,0.350904721406
1649337589400421067,293,1649337589399702450,1,-14.3243408206,15.1700742426,0.0,0.0,0.0,0.978750931578,0.205052710136
1649337590162209999,294,1649337590162112082,1,-14.609417807,15.2391892269,0.0,0.0,0.0,0.993096581783,0.117299527926
1649337591098876544,295,1649337591098763184,1,-14.9887602139,15.2648732033,0.0,0.0,0.0,0.999448831337,0.0331968904901
1649337592173095098,296,1649337592173011712,1,-15.4340186184,15.2102549179,0.0,0.0,0.0,-0.998122460271,0.0612499330764
1649337593136149641,297,1649337593135642982,1,-15.8834023955,15.1309718954,0.0,0.0,0.0,-0.996174531651,0.0873859398818
1649337594178657434,298,1649337594177955920,1,-16.3546173473,15.0166625452,0.0,0.0,0.0,-0.992914441105,0.118831446364
1649337595150565744,299,1649337595150049001,1,-16.6263886275,14.8665158747,0.0,0.0,0.0,-0.968315269743,0.249730931971
1649337597103594767,300,1649337597103021867,1,-16.9691664624,14.3766418558,0.0,0.0,0.0,-0.844526091299,0.535514407944
1649337598117952071,301,1649337598117861045,1,-16.994730029,14.0676981404,0.0,0.0,0.0,-0.735824279179,0.677172526148
1649337599156152364,302,1649337599155510403,1,-16.9278072111,13.6754359666,0.0,0.0,0.0,-0.645020006565,0.764165683036
1649337600156257993,303,1649337600155670401,1,-16.7721963034,13.3103432406,0.0,0.0,0.0,-0.551414477251,0.83423142729
1649337601173545226,304,1649337601173458257,1,-16.5649161896,13.0948218027,0.0,0.0,0.0,-0.391772045131,0.920062315636
1649337602395429691,305,1649337602395315138,1,-13.9971103274,12.1388364635,0.0,0.0,0.0,-0.0541514689992,0.998532732766
1649337603160930110,306,1649337603160833088,1,-10.3488736695,11.3285878479,0.0,0.0,0.0,0.101160983186,0.994870069648
1649337604165363813,307,1649337604165262221,1,-10.0033033135,11.3894050685,0.0,0.0,0.0,0.103269788896,0.99465338219
1649337607111194115,308,1649337607111104623,1,-8.99537031513,11.1398533718,0.0,0.0,0.0,-0.000277922454855,0.99999996138
1649337608146365390,309,1649337608146275651,1,-8.19451737937,10.893869284,0.0,0.0,0.0,-0.167232137174,0.985917548427
1649337609118596689,310,1649337609117958345,1,-7.90843866514,10.6857392719,0.0,0.0,0.0,-0.303575561824,0.952807366818
1649337611423480348,311,1649337611423291044,1,-7.30954098021,10.1431093105,0.0,0.0,0.0,-0.283870472128,0.958862636176
1649337612198065578,312,1649337612197879938,1,-7.0866932471,10.057515139,0.0,0.0,0.0,-0.18489197482,0.9827588502
1649337613158184842,313,1649337613157469253,1,-6.92484472788,10.3843643123,0.0,0.0,0.0,-0.0781493489999,0.996941662913
1649337615146156889,314,1649337615145877451,1,-6.93943613119,10.6513042811,0.0,0.0,0.0,-0.123215428488,0.992379946483
1649337616152934339,315,1649337616152450998,1,-6.47184174009,10.3142457731,0.0,0.0,0.0,-0.220722097818,0.97533673956
1649337618117915749,316,1649337618117223161,1,-6.4682685112,9.92900537479,0.0,0.0,0.0,-0.784637834005,0.619954409168
1649337619121161371,317,1649337619120413852,1,-6.11842824758,9.52599925189,0.0,0.0,0.0,-0.624300505449,0.78118427973
1649337620160246003,318,1649337620159510193,1,-5.39822242101,9.05943095057,0.0,0.0,0.0,-0.457642565592,0.889136256239
1649337621105307560,319,1649337621105202428,1,-5.42049214758,8.96794428376,0.0,0.0,0.0,-0.49473868951,0.869041787891
1649337622129332437,320,1649337622128705004,1,-5.16265483685,8.54531954222,0.0,0.0,0.0,-0.483909126954,0.875118253067
1649337623097725421,321,1649337623097603864,1,-4.9086678896,8.21837031429,0.0,0.0,0.0,-0.433444060817,0.90118047368
1649337624350455822,322,1649337624348478847,1,-4.85982684688,7.83577725248,0.0,0.0,0.0,-0.542069340851,0.840333760901
1649337625512814063,323,1649337625512714379,1,-4.42612519335,7.37627348494,0.0,0.0,0.0,-0.509743135877,0.86032664461
1649337626129280481,324,1649337626128463574,1,-4.06699263743,6.76305174909,0.0,0.0,0.0,-0.518938029118,0.854811863473
1649337627155918797,325,1649337627155081344,1,-3.93557115255,6.6253919236,0.0,0.0,0.0,-0.52053377212,0.853841081281
1649337628143085386,326,1649337628142998820,1,-3.72477882679,6.21799634209,0.0,0.0,0.0,-0.517905078323,0.855438092352
1649337629149942261,327,1649337629149797449,1,-3.25184734068,5.57306201743,0.0,0.0,0.0,-0.559867117619,0.82858241027
1649337630075776734,328,1649337630075682235,1,-3.09604090626,5.15414650494,0.0,0.0,0.0,-0.563736493307,0.825954699795
1649337631100296297,329,1649337631100184152,1,-2.96724669248,4.68783111972,0.0,0.0,0.0,-0.601414932048,0.798936843255
1649337632174369534,330,1649337632174150754,1,-2.86743003822,4.18673372524,0.0,0.0,0.0,-0.631495946443,0.775379177968
1649337633597747032,331,1649337633597017770,1,-2.65724012971,3.55632978976,0.0,0.0,0.0,-0.583475911161,0.812130445861
1649337634192116312,332,1649337634191575416,1,-2.55716004934,3.29383344605,0.0,0.0,0.0,-0.565473749297,0.824766293477
1649337635156025340,333,1649337635155614616,1,-2.38461396895,2.84553643479,0.0,0.0,0.0,-0.565216050172,0.824942917194
1649337636193121976,334,1649337636193019555,1,-2.20186850571,2.3721249263,0.0,0.0,0.0,-0.565039866889,0.825063602898
1649337637337639556,335,1649337637337112104,1,-1.61054739099,2.889038615,0.0,0.0,0.0,-0.3570021728,0.934103553476
1649337638160044580,336,1649337638159970116,1,-1.16771370705,3.34120644463,0.0,0.0,0.0,-0.0700382170072,0.99754430887
1649337639206916821,337,1649337639206230021,1,-0.769785897734,3.45002794272,0.0,0.0,0.0,-0.0145376853025,0.999894322269
1649337640142092707,338,1649337640141959174,1,-0.450418812544,3.54443556674,0.0,0.0,0.0,0.0830028983954,0.996549305784
1649337641166856955,339,1649337641166763094,1,-0.0246513825605,3.69955725675,0.0,0.0,0.0,0.153280177744,0.988182770094
1649337642156551334,340,1649337642156470863,1,0.368107751733,3.89719387981,0.0,0.0,0.0,0.21966713614,0.975574881442
1649337643101425897,341,1649337643101344245,1,0.445262022473,4.52789477163,0.0,0.0,0.0,-0.0256402239798,0.999671235414
1649337645124632295,342,1649337645123750461,1,0.802568468363,4.13640590019,0.0,0.0,0.0,-0.446927276362,0.894570293294
1649337647195817309,343,1649337647195158320,1,0.638391259418,3.89443197156,0.0,0.0,0.0,-0.920005639734,0.391905119713
1649337649139498230,344,1649337649139380608,1,0.179277974731,4.54088873256,0.0,0.0,0.0,0.853470917452,0.521140473446
1649337650178471490,345,1649337650178359655,1,0.0125083038162,4.90937965791,0.0,0.0,0.0,0.849961986568,0.52684401998
1649337651282742887,346,1649337651282520245,1,-0.0282860500009,5.27755182319,0.0,0.0,0.0,0.744891529598,0.667185588224
1649337652155382055,347,1649337652155263973,1,0.0219778100528,5.58538996165,0.0,0.0,0.0,0.645931385284,0.763395471237
1649337655160334434,348,1649337655159624022,1,-0.744870448548,5.84644781815,0.0,0.0,0.0,0.597768099031,0.801669071239
1649337656148273215,349,1649337656148173622,1,-1.33470375125,5.89891837679,0.0,0.0,0.0,0.790942326892,0.611890705544
1649337657606655962,350,1649337657605894711,1,-1.45531411785,6.60402159529,0.0,0.0,0.0,0.713751211209,0.700399320744
1649337658208015649,351,1649337658207912312,1,-1.48697266486,6.90001081735,0.0,0.0,0.0,0.700310563666,0.713838297108
1649337659177698128,352,1649337659176750119,1,-1.49314720033,7.36867773036,0.0,0.0,0.0,0.697720272709,0.716370310001
1649337660143556573,353,1649337660142939654,1,-2.37811317304,7.43823126631,0.0,0.0,0.0,0.820029893094,0.572320691949
1649337662360232503,354,1649337662359721275,1,-3.62023146001,7.49372139178,0.0,0.0,0.0,0.933463278526,0.35867298148
1649337663191224181,355,1649337663191126290,1,-3.90532850207,7.79300087014,0.0,0.0,0.0,0.93893832246,0.344085493179
1649337664132666648,356,1649337664132546287,1,-4.25652139802,8.10451358815,0.0,0.0,0.0,0.94074685449,0.339109651539
1649337665135420810,357,1649337665134880464,1,-4.99052285939,8.87564957649,0.0,0.0,0.0,0.917437633922,0.397879614788
1649337666189360916,358,1649337666188680914,1,-5.11891399244,9.23382282942,0.0,0.0,0.0,0.890129787683,0.455707100098
1649337667164750370,359,1649337667163988243,1,-5.29716826215,9.42771637889,0.0,0.0,0.0,0.914863952767,0.40376224183
1649337668264040526,360,1649337668263248028,1,-5.86835066775,9.86335881493,0.0,0.0,0.0,0.915398259961,0.402549407726
1649337669161505601,361,1649337669160833891,1,-6.50345842501,10.2825205077,0.0,0.0,0.0,0.934622002311,0.355642675724
1649337670215550321,362,1649337670214256586,1,-6.01999142644,9.93911458913,0.0,0.0,0.0,0.932940364752,0.360030937304
1649337671379559833,363,1649337671378057521,1,-6.43900499938,10.2229006903,0.0,0.0,0.0,0.956976765303,0.290164557915
1649337672166748783,364,1649337672166145465,1,-6.73088229363,10.456936844,0.0,0.0,0.0,0.980575149232,0.196143765411
1649337673271480019,365,1649337673271295788,1,-7.11812464594,10.6740116347,0.0,0.0,0.0,0.990960344324,0.13415511909
1649337675171458899,366,1649337675171348531,1,-7.94344199306,11.0679397066,0.0,0.0,0.0,0.981647540559,0.190704237276
1649337676157506137,367,1649337676156749341,1,-8.221860828,11.2487817664,0.0,0.0,0.0,0.982289914894,0.187367348005
1649337677153334605,368,1649337677153220295,1,-8.09764612605,11.3165435667,0.0,0.0,0.0,0.935094459447,0.354398577751
1649337678154788475,369,1649337678154562831,1,-8.49548431738,11.6280063992,0.0,0.0,0.0,0.938364311744,0.345647824304
1649337679191504067,370,1649337679191384473,1,-9.58395869419,11.8934703685,0.0,0.0,0.0,0.966101016768,0.258164337971
1649337680191248290,371,1649337680190331499,1,-9.69794413899,11.9526701321,0.0,0.0,0.0,0.978560121176,0.205961378041
1649337681162257558,372,1649337681162175788,1,-9.78563763215,11.9714314152,0.0,0.0,0.0,0.994995229718,0.0999224341082
1649337682151191048,373,1649337682145500687,1,-9.80647803944,11.9338516297,0.0,0.0,0.0,0.998222733221,0.0595934130664
1649337683168861292,374,1649337683168782723,1,-9.91949709241,11.9381995526,0.0,0.0,0.0,0.998787883104,0.0492215863718
1649337684157825431,375,1649337684157624897,1,-10.0464310906,11.9181841739,0.0,0.0,0.0,-0.997433639243,0.0715970342016
1649337685176388799,376,1649337685175687256,1,-10.1319122346,11.9016959396,0.0,0.0,0.0,-0.995884540707,0.090631018872
1649337686404482817,377,1649337686404387807,1,-10.3932360332,11.920794309,0.0,0.0,0.0,-0.997462583068,0.0711926637993
1649337687463156220,378,1649337687462854902,1,-10.5568068588,12.0987238506,0.0,0.0,0.0,0.98697537238,0.160871421683
1649337688194134159,379,1649337688193833033,1,-10.6506847504,12.1212307469,0.0,0.0,0.0,0.992571095196,0.121666022297
1649337689177036772,380,1649337689176583743,1,-10.8264502417,12.163835763,0.0,0.0,0.0,0.99267980139,0.120775874715
1649337690139897720,381,1649337690139180657,1,-11.017617601,12.2142913993,0.0,0.0,0.0,0.991474255458,0.130302727388
1649337691170121497,382,1649337691169405106,1,-11.4490702846,12.3930535458,0.0,0.0,0.0,0.980702443389,0.195506310717
1649337692175485348,383,1649337692174943768,1,-11.833418056,12.6135637677,0.0,0.0,0.0,0.966183899474,0.257853974951
1649337693148350102,384,1649337693148244870,1,-12.0749917367,12.8353747845,0.0,0.0,0.0,0.931741374629,0.363122583716
1649337694154551591,385,1649337694154457384,1,-12.2600342343,13.116577816,0.0,0.0,0.0,0.880271302946,0.474470687408
1649337695118177314,386,1649337695118011722,1,-12.4425419286,13.4962147346,0.0,0.0,0.0,0.846578682565,0.532263594685
1649337696177232326,387,1649337696176435389,1,-12.5829304477,13.932591227,0.0,0.0,0.0,0.808198458108,0.588910224323
1649337697193059621,388,1649337697192411699,1,-12.7544130586,14.2864343727,0.0,0.0,0.0,0.847364996165,0.531010888094
1649337698159662481,389,1649337698159550023,1,-12.9608760836,14.5836004365,0.0,0.0,0.0,0.886123754714,0.463448693311
1649337699111147216,390,1649337699111051448,1,-13.2395115305,14.8632885277,0.0,0.0,0.0,0.923477771223,0.383651933471
1649337700171135255,391,1649337700170539521,1,-13.5901527899,15.1018249382,0.0,0.0,0.0,0.955692114627,0.294368106357
1649337701226829120,392,1649337701226712797,1,-14.0406104793,15.3219908217,0.0,0.0,0.0,0.974256725908,0.225441415944
1649337702161276260,393,1649337702160604934,1,-14.4653509403,15.4773537352,0.0,0.0,0.0,0.984652690409,0.174525296934
